[
  {
    "name": "Meetcha Cafe & Eatery",
    "location": "Vervea",
    "diet": "Any",
    "theme": "Fusion (Local & Western)",
    "votes": 0,
    "lat": 5.2645,
    "lon": 100.4375
  },
  {
    "name": "Pan Pan Restaurant",
    "location": "Vervea",
    "diet": "Halal",
    "theme": "Asian, Muslim-friendly",
    "votes": 0,
    "lat": 5.2646,
    "lon": 100.4376
  },
  {
    "name": "Temp Cafe",
    "location": "Vervea",
    "diet": "Halal",
    "theme": "Cafe, Western",
    "votes": 0,
    "lat": 5.2647,
    "lon": 100.4377
  },
  {
    "name": "Shunka Japanese Restaurant",
    "location": "Vervea",
    "diet": "Non-Halal",
    "theme": "Japanese",
    "votes": 0,
    "lat": 5.2645,
    "lon": 100.4375
  },
  {
    "name": "Ren Wafu Ramen & Don",
    "location": "Vervea",
    "diet": "Non-Halal",
    "theme": "Japanese",
    "votes": 0,
    "lat": 5.2645,
    "lon": 100.4375
  },
  {
    "name": "WG Wondrous Gastronomy",
    "location": "Vervea",
    "diet": "Any",
    "theme": "Fusion",
    "votes": 0,
    "lat": 5.2645,
    "lon": 100.4375
  },
  {
    "name": "A Pause Restaurant",
    "location": "Vervea",
    "diet": "Any",
    "theme": "Western",
    "votes": 0,
    "lat": 5.2645,
    "lon": 100.4375
  },
  {
    "name": "Cili Giling",
    "location": "Vervea",
    "diet": "Halal",
    "theme": "Malay",
    "votes": 0,
    "lat": 5.2645,
    "lon": 100.4375
  },
  {
    "name": "Harenee Spice House",
    "location": "Vervea",
    "diet": "Halal",
    "theme": "Indian",
    "votes": 0,
    "lat": 5.2645,
    "lon": 100.4375
  },
  {
    "name": "The Wok & Flame Restaurant",
    "location": "Vervea",
    "diet": "Halal",
    "theme": "Asian",
    "votes": 0,
    "lat": 5.2645,
    "lon": 100.4375
  },
  {
    "name": "Wen Kee Restaurant",
    "location": "Vervea",
    "diet": "Non-Halal",
    "theme": "Chinese",
    "votes": 0,
    "lat": 5.2645,
    "lon": 100.4375
  },
  {
    "name": "SanTai",
    "location": "Vervea",
    "diet": "Non-Halal",
    "theme": "Chinese",
    "votes": 0,
    "lat": 5.2645,
    "lon": 100.4375
  },
  {
    "name": "Five Grains Noodles",
    "location": "Vervea",
    "diet": "Halal",
    "theme": "Chinese",
    "votes": 0,
    "lat": 5.2645,
    "lon": 100.4375
  },
  {
    "name": "Nasi Ayam Kawan",
    "location": "Vervea",
    "diet": "Halal",
    "theme": "Malay",
    "votes": 0,
    "lat": 5.2645,
    "lon": 100.4375
  },
  {
    "name": "AB Home & Café",
    "location": "Vervea",
    "diet": "Any",
    "theme": "Cafe",
    "votes": 0,
    "lat": 5.2645,
    "lon": 100.4375
  },
  {
    "name": "Kopi Saigon Batu Kawan",
    "location": "Vervea",
    "diet": "Halal",
    "theme": "Vietnamese",
    "votes": 0,
    "lat": 5.2645,
    "lon": 100.4375
  },
  {
    "name": "Nasi Lemak Datin",
    "location": "Vervea",
    "diet": "Halal",
    "theme": "Malay",
    "votes": 0,
    "lat": 5.2645,
    "lon": 100.4375
  },
  {
    "name": "Rare Brew Café",
    "location": "Vervea",
    "diet": "Halal",
    "theme": "Cafe",
    "votes": 0,
    "lat": 5.2645,
    "lon": 100.4375
  },
  {
    "name": "Safa Matcha",
    "location": "Vervea",
    "diet": "Halal",
    "theme": "Japanese",
    "votes": 0,
    "lat": 5.2645,
    "lon": 100.4375
  },
  {
    "name": "Hello! Ma La Tang",
    "location": "Vervea",
    "diet": "Non-Halal",
    "theme": "Chinese",
    "votes": 0,
    "lat": 5.2645,
    "lon": 100.4375
  },
  {
    "name": "Shao Lak Restaurant",
    "location": "Vervea",
    "diet": "Non-Halal",
    "theme": "Chinese",
    "votes": 0,
    "lat": 5.2645,
    "lon": 100.4375
  },
  {
    "name": "Face to Face Noodle House",
    "location": "Vervea",
    "diet": "Halal",
    "theme": "Chinese",
    "votes": 0,
    "lat": 5.2645,
    "lon": 100.4375
  },
  {
    "name": "Chicken Claypot House",
    "location": "Vervea",
    "diet": "Halal",
    "theme": "Chinese",
    "votes": 0,
    "lat": 5.2645,
    "lon": 100.4375
  },
  {
    "name": "SK Bhavan",
    "location": "Vervea",
    "diet": "Halal",
    "theme": "Indian",
    "votes": 0,
    "lat": 5.2645,
    "lon": 100.4375
  },
  {
    "name": "Medrich Café",
    "location": "Vervea",
    "diet": "Any",
    "theme": "Cafe",
    "votes": 0,
    "lat": 5.2645,
    "lon": 100.4375
  },
  {
    "name": "Snacks! Bakery & Café",
    "location": "Vervea",
    "diet": "Any",
    "theme": "Bakery, Cafe",
    "votes": 0,
    "lat": 5.2645,
    "lon": 100.4375
  },
  {
    "name": "King Kong Ramen",
    "location": "Vervea",
    "diet": "Non-Halal",
    "theme": "Japanese",
    "votes": 0,
    "lat": 5.2645,
    "lon": 100.4375
  },
  {
    "name": "Yusuf Restaurant",
    "location": "Vervea",
    "diet": "Halal",
    "theme": "Indian",
    "votes": 0,
    "lat": 5.2645,
    "lon": 100.4375
  },
  {
    "name": "Indian Heritage Restaurant",
    "location": "Vervea",
    "diet": "Halal",
    "theme": "Indian",
    "votes": 0,
    "lat": 5.2645,
    "lon": 100.4375
  },
  {
    "name": "Le Man Tang Restaurant",
    "location": "Vervea",
    "diet": "Non-Halal",
    "theme": "Chinese",
    "votes": 0,
    "lat": 5.2645,
    "lon": 100.4375
  },
  {
    "name": "Sri Meenackshi Bhavan",
    "location": "Vervea",
    "diet": "Halal",
    "theme": "Indian",
    "votes": 0,
    "lat": 5.2645,
    "lon": 100.4375
  },
  {
    "name": "18 Garden (Uncle Kin Chili Pan Mee)",
    "location": "Vervea",
    "diet": "Halal",
    "theme": "Chinese",
    "votes": 0,
    "lat": 5.2645,
    "lon": 100.4375
  },
  {
    "name": "Unggul Nasi Campur",
    "location": "Vervea",
    "diet": "Halal",
    "theme": "Malay",
    "votes": 0,
    "lat": 5.2645,
    "lon": 100.4375
  },
  {
    "name": "M&L Food House",
    "location": "Vervea",
    "diet": "Halal",
    "theme": "Chinese",
    "votes": 0,
    "lat": 5.2645,
    "lon": 100.4375
  },
  {
    "name": "Dynasty Porridge",
    "location": "Vervea",
    "diet": "Non-Halal",
    "theme": "Chinese",
    "votes": 0,
    "lat": 5.2645,
    "lon": 100.4375
  },
  {
    "name": "Hao Yun",
    "location": "Vervea",
    "diet": "Non-Halal",
    "theme": "Chinese",
    "votes": 0,
    "lat": 5.2645,
    "lon": 100.4375
  },
  {
    "name": "James Foo Western Food",
    "location": "Vervea",
    "diet": "Any",
    "theme": "Western",
    "votes": 0,
    "lat": 5.2645,
    "lon": 100.4375
  },
  {
    "name": "Mala Miss Me",
    "location": "Vervea",
    "diet": "Non-Halal",
    "theme": "Chinese",
    "votes": 0,
    "lat": 5.2645,
    "lon": 100.4375
  },
  {
    "name": "MaoPaiHuo",
    "location": "Vervea",
    "diet": "Non-Halal",
    "theme": "Chinese",
    "votes": 0,
    "lat": 5.2645,
    "lon": 100.4375
  },
  {
    "name": "Asian Houze",
    "location": "Utropolis",
    "diet": "Any",
    "theme": "Asian Fusion, Halal",
    "votes": 0,
    "lat": 5.2404,
    "lon": 100.4383
  },
  {
    "name": "OoriDoori Utropolis",
    "location": "Utropolis",
    "diet": "Halal",
    "theme": "Korean BBQ",
    "votes": 0,
    "lat": 5.2404,
    "lon": 100.4383
  },
  {
    "name": "JY Kopitiam",
    "location": "Utropolis",
    "diet": "Non-Halal",
    "theme": "Local Kopitiam",
    "votes": 0,
    "lat": 5.2404,
    "lon": 100.4383
  },
  {
    "name": "Lang Hiam Kopitiam",
    "location": "Utropolis",
    "diet": "Non-Halal",
    "theme": "Local Kopitiam",
    "votes": 0,
    "lat": 5.2404,
    "lon": 100.4383
  },
  {
    "name": "Kobab Korea Bbq",
    "location": "Utropolis",
    "diet": "Non-Halal",
    "theme": "Korean BBQ",
    "votes": 0,
    "lat": 5.2404,
    "lon": 100.4383
  },
  {
    "name": "CAFE ONE TWENTY 9",
    "location": "Utropolis",
    "diet": "Any",
    "theme": "Cafe, Western",
    "votes": 0,
    "lat": 5.2404,
    "lon": 100.4383
  },
  {
    "name": "Mulam Hongkong Economy Canteen",
    "location": "Utropolis",
    "diet": "Non-Halal",
    "theme": "Hong Kong Street Food",
    "votes": 0,
    "lat": 5.2404,
    "lon": 100.4383
  },
  {
    "name": "Mala Miss Me",
    "location": "Utropolis",
    "diet": "Non-Halal",
    "theme": "Chinese Mala",
    "votes": 0,
    "lat": 5.2404,
    "lon": 100.4383
  },
  {
    "name": "Tai Jia Lam Thai Cuisine",
    "location": "Utropolis",
    "diet": "Non-Halal",
    "theme": "Thai Cuisine",
    "votes": 0,
    "lat": 5.2404,
    "lon": 100.4383
  },
  {
    "name": "Last Time Coffee Shop",
    "location": "Utropolis",
    "diet": "Any",
    "theme": "Local Coffee Shop",
    "votes": 0,
    "lat": 5.2404,
    "lon": 100.4383
  },
  {
    "name": "James Foo Western Food",
    "location": "Utropolis",
    "diet": "Any",
    "theme": "Western",
    "votes": 0,
    "lat": 5.2404,
    "lon": 100.4383
  },
  {
    "name": "Ideal Genki Sushi",
    "location": "Utropolis",
    "diet": "Halal",
    "theme": "Japanese Sushi",
    "votes": 0,
    "lat": 5.2404,
    "lon": 100.4383
  },
  {
    "name": "Makan Nasi",
    "location": "Utropolis",
    "diet": "Halal",
    "theme": "Local Rice Dishes",
    "votes": 0,
    "lat": 5.2404,
    "lon": 100.4383
  },
  {
    "name": "Refresh (RF Coffee)",
    "location": "Utropolis",
    "diet": "Any",
    "theme": "Cafe, Coffee",
    "votes": 0,
    "lat": 5.2404,
    "lon": 100.4383
  },
  {
    "name": "Ai-CHA",
    "location": "Utropolis",
    "diet": "Any",
    "theme": "Bubble Tea, Snacks",
    "votes": 0,
    "lat": 5.2404,
    "lon": 100.4383
  },
  {
    "name": "Little June Sushi",
    "location": "Utropolis",
    "diet": "Halal",
    "theme": "Japanese Sushi",
    "votes": 0,
    "lat": 5.2404,
    "lon": 100.4383
  },
  {
    "name": "Ready to E.A.T",
    "location": "Utropolis",
    "diet": "Any",
    "theme": "Fusion, Western",
    "votes": 0,
    "lat": 5.2404,
    "lon": 100.4383
  },
  {
    "name": "QQ",
    "location": "Utropolis",
    "diet": "Non-Halal",
    "theme": "Chinese Noodles",
    "votes": 0,
    "lat": 5.2404,
    "lon": 100.4383
  },
  {
    "name": "Thai Tuk Tuk",
    "location": "Utropolis",
    "diet": "Non-Halal",
    "theme": "Thai Cuisine",
    "votes": 0,
    "lat": 5.2404,
    "lon": 100.4383
  },
  {
    "name": "Sand Wish",
    "location": "Borealis",
    "diet": "Halal",
    "theme": "Sandwiches, Bowls, Pork-free",
    "votes": 0,
    "lat": 5.265,
    "lon": 100.44
  },
  {
    "name": "Pitstop Borealis Cafe",
    "location": "Borealis",
    "diet": "Non-Halal",
    "theme": "Fusion Café",
    "votes": 0,
    "lat": 5.265,
    "lon": 100.44
  },
  {
    "name": "Sushi Ya",
    "location": "Borealis",
    "diet": "Halal",
    "theme": "Sushi",
    "votes": 0,
    "lat": 5.265,
    "lon": 100.44
  },
  {
    "name": "Nasi Lemak Ketua Kampung",
    "location": "Borealis",
    "diet": "Halal",
    "theme": "Nasi Lemak",
    "votes": 0,
    "lat": 5.265,
    "lon": 100.44
  },
  {
    "name": "Starbucks",
    "location": "Borealis",
    "diet": "Halal",
    "theme": "Coffee & Pastries",
    "votes": 0,
    "lat": 5.265,
    "lon": 100.44
  },
  {
    "name": "Le Man Tang Restaurant",
    "location": "Borealis",
    "diet": "Non-Halal",
    "theme": "Chinese",
    "votes": 0,
    "lat": 5.265,
    "lon": 100.44
  },
  {
    "name": "Taiwanese Palace",
    "location": "Borealis",
    "diet": "Non-Halal",
    "theme": "Taiwan Food",
    "votes": 0,
    "lat": 5.265,
    "lon": 100.44
  },
  {
    "name": "Nom Nom Eatery",
    "location": "Borealis",
    "diet": "Halal",
    "theme": "Asian Fusion",
    "votes": 0,
    "lat": 5.265,
    "lon": 100.44
  },
  {
    "name": "Dotori Restaurant",
    "location": "Borealis",
    "diet": "Non-Halal",
    "theme": "Korean",
    "votes": 0,
    "lat": 5.265,
    "lon": 100.44
  },
  {
    "name": "Mi Ban Café",
    "location": "Borealis",
    "diet": "Halal",
    "theme": "Local Café",
    "votes": 0,
    "lat": 5.265,
    "lon": 100.44
  },
  {
    "name": "King Kong Ramen",
    "location": "Borealis",
    "diet": "Non-Halal",
    "theme": "Japanese Ramen",
    "votes": 0,
    "lat": 5.265,
    "lon": 100.44
  },
  {
    "name": "Dragon Noodle",
    "location": "Borealis",
    "diet": "Non-Halal",
    "theme": "Chinese Noodles",
    "votes": 0,
    "lat": 5.265,
    "lon": 100.44
  },
  {
    "name": "Ayam Penyet Mummy",
    "location": "Borealis",
    "diet": "Halal",
    "theme": "Indonesian",
    "votes": 0,
    "lat": 5.265,
    "lon": 100.44
  },
  {
    "name": "Taco Bell",
    "location": "Borealis",
    "diet": "Halal",
    "theme": "Mexican Fast Food",
    "votes": 0,
    "lat": 5.265,
    "lon": 100.44
  },
  {
    "name": "Nasi Kandar Nasmir",
    "location": "Borealis",
    "diet": "Halal",
    "theme": "Nasi Kandar",
    "votes": 0,
    "lat": 5.265,
    "lon": 100.44
  },
  {
    "name": "Secret Recipe",
    "location": "Borealis",
    "diet": "Halal",
    "theme": "Western & Cakes",
    "votes": 0,
    "lat": 5.265,
    "lon": 100.44
  },
  {
    "name": "Subway",
    "location": "Borealis",
    "diet": "Halal",
    "theme": "Sandwiches",
    "votes": 0,
    "lat": 5.265,
    "lon": 100.44
  },
  {
    "name": "Nasi Kandar Ali Khan",
    "location": "Borealis",
    "diet": "Halal",
    "theme": "Nasi Kandar",
    "votes": 0,
    "lat": 5.265,
    "lon": 100.44
  },
  {
    "name": "Pizza Hut",
    "location": "Borealis",
    "diet": "Halal",
    "theme": "Pizza",
    "votes": 0,
    "lat": 5.265,
    "lon": 100.44
  },
  {
    "name": "Zus",
    "location": "Borealis",
    "diet": "Halal",
    "theme": "Coffee & Pastries",
    "votes": 0,
    "lat": 5.265,
    "lon": 100.44
  },
  {
    "name": "IKEA",
    "location": "IKEA Area",
    "diet": "Halal",
    "theme": "Swedish, Family Dining",
    "votes": 0,
    "lat": 5.24,
    "lon": 100.44
  },
  {
    "name": "Phat Bee Café",
    "location": "IKEA Area",
    "diet": "Halal",
    "theme": "Asian Fusion Café",
    "votes": 0,
    "lat": 5.24,
    "lon": 100.44
  },
  {
    "name": "Gerai Makan Pergi Haji",
    "location": "IKEA Area",
    "diet": "Halal",
    "theme": "Local Malay Cuisine",
    "votes": 0,
    "lat": 5.24,
    "lon": 100.44
  },
  {
    "name": "The Coffee Bean & Tea Leaf",
    "location": "IKEA Area",
    "diet": "Halal",
    "theme": "Coffee, Western Café",
    "votes": 0,
    "lat": 5.24,
    "lon": 100.44
  },
  {
    "name": "KFC",
    "location": "IKEA Area",
    "diet": "Halal",
    "theme": "Fast Food, Fried Chicken",
    "votes": 0,
    "lat": 5.24,
    "lon": 100.44
  },
  {
    "name": "Mc Donalds",
    "location": "IKEA Area",
    "diet": "Halal",
    "theme": "Fast Food, Burgers",
    "votes": 0,
    "lat": 5.24,
    "lon": 100.44
  },
  {
    "name": "Kenny Rogers",
    "location": "IKEA Area",
    "diet": "Halal",
    "theme": "Western, Rotisserie Chicken",
    "votes": 0,
    "lat": 5.24,
    "lon": 100.44
  },
  {
    "name": "TeaLive",
    "location": "IKEA Area",
    "diet": "Halal",
    "theme": "Bubble Tea, Beverages",
    "votes": 0,
    "lat": 5.24,
    "lon": 100.44
  },
  {
    "name": "A&W",
    "location": "IKEA Area",
    "diet": "Halal",
    "theme": "Fast Food, American",
    "votes": 0,
    "lat": 5.24,
    "lon": 100.44
  },
  {
    "name": "Food Court Masjid Simpang Ampat",
    "location": "Simpang Ampat",
    "diet": "Halal",
    "theme": "Malay",
    "votes": 0,
    "lat": 5.2808,
    "lon": 100.4749
  },
  {
    "name": "Nasi Kandar Pak Syed",
    "location": "Simpang Ampat",
    "diet": "Halal",
    "theme": "Malay",
    "votes": 0,
    "lat": 5.2808,
    "lon": 100.4749
  },
  {
    "name": "US Pizza",
    "location": "Simpang Ampat",
    "diet": "Halal",
    "theme": "Pizza",
    "votes": 0,
    "lat": 5.2808,
    "lon": 100.4749
  },
  {
    "name": "Gerai Sebelah Masjid",
    "location": "Simpang Ampat",
    "diet": "Halal",
    "theme": "Malay",
    "votes": 0,
    "lat": 5.3108,
    "lon": 100.44518
  },
  {
    "name": "Iconic Point",
    "location": "Simpang Ampat",
    "diet": "Any",
    "theme": "Any",
    "votes": 0,
    "lat": 5.2835,
    "lon": 100.4763
  },
  {
    "name": "Tambun Prawn Village",
    "location": "Bukit Tambun",
    "diet": "Any",
    "theme": "Seafood",
    "votes": 0,
    "lat": 5.271215,
    "lon": 100.443393
  },
  {
    "name": "Tambun Kochabi",
    "location": "Bukit Tambun",
    "diet": "Non-Halal",
    "theme": "Kopitiam",
    "votes": 0,
    "lat": 5.271215,
    "lon": 100.443393
  },
  {
    "name": "Sheng Ji Curry Seafood",
    "location": "Bukit Tambun",
    "diet": "Non-Halal",
    "theme": "Kopitiam",
    "votes": 0,
    "lat": 5.274927,
    "lon": 100.443793
  },
  {
    "name": "How Kee Curry",
    "location": "Bukit Tambun",
    "diet": "Non-Halal",
    "theme": "Kopitiam",
    "votes": 0,
    "lat": 5.272447,
    "lon": 100.450096
  },
  {
    "name": "Tambun Jade Seafood Restaurant",
    "location": "Bukit Tambun",
    "diet": "Any",
    "theme": "Seafood",
    "votes": 0,
    "lat": 5.274357,
    "lon": 100.451260
  },
  {
    "name": "Jetty Seafood",
    "location": "Bukit Tambun",
    "diet": "Any",
    "theme": "Seafood",
    "votes": 0,
    "lat": 5.270891,
    "lon": 100.443310
  },
  {
    "name": "Ban Liau Bukit Tambun",
    "location": "Bukit Tambun",
    "diet": "Any",
    "theme": "Seafood",
    "votes": 0,
    "lat": 5.274611,
    "lon": 100.444103
  },
  {
    "name": "Restoran How Kee Seafood Village",
    "location": "Bukit Tambun",
    "diet": "Any",
    "theme": "Seafood",
    "votes": 0,
    "lat": 5.272486,
    "lon": 100.450730
  },
  {
    "name": "Floating Seafood Paradise Restaurant",
    "location": "Bukit Tambun",
    "diet": "Any",
    "theme": "Seafood",
    "votes": 0,
    "lat": 5.276261,
    "lon": 100.445764
  },
  {
    "name": "Bukit Tambun Hokkien Mee",
    "location": "Bukit Tambun",
    "diet": "Any",
    "theme": "Seafood",
    "votes": 0,
    "lat": 5.273727,
    "lon": 100.448954
  },
  {
    "name": "Tambun Star Food Court",
    "location": "Bukit Tambun",
    "diet": "Any",
    "theme": "Any",
    "votes": 0,
    "lat": 5.271118,
    "lon": 100.460089
  },
  {
    "name": "Unknown Cafe & Bistro Eco Series",
    "location": "Auto City",
    "diet": "Halal",
    "theme": "Western",
    "votes": 0,
    "lat": 5.336264,
    "lon": 100.427384
  }
]
